A PostCSS plugin did not pass the `from` option to `postcss.parse`. This may cause imported assets to be incorrectly transformed. If you've recently added a PostCSS plugin that raised this warning, please contact the package author to fix the issue.
9:25:59 AM [express] GET /api/geocoding 200 in 192ms :: [{"id":"1252563","name":"Ha","country":"Bhutan","countryCode":"BT","latitude":27.38747,"longitude":89.28074,"admin1":"Haa","population":1449},{"id":"2456707","name":"Ha","country":"Mali","countryCode":"ML","latitude":16.65361,"longitude":-0.3025,"admin1":"Gao"},{"id":"2709527","name":"Hå","country":"Sweden","countryCode":"SE","latitude":56.66667,"longitude":13.91667,"admin1":"Kronoberg"},{"id":"8299325","name":"Hå","country":"Sweden","countryCode":"SE","latitude":61.24231,"longitude":16.41736,"admin1":"Gävleborg"},{"id":"8607586","name":"Ha","country":"Cameroon","countryCode":"CM","latitude":5.38317,"longitude":10.43242,"admin1":"West"},{"id":"10721861","name":"Ha","country":"India","countryCode":"IN","latitude":32.45546,"longitude":76.41729,"admin1":"Himachal Pradesh"}]
9:25:59 AM [express] GET /api/geocoding 200 in 135ms :: [{"id":"2911298","name":"Hamburg","country":"Germany","countryCode":"DE","latitude":53.55073,"longitude":9.99302,"admin1":"Hamburg","population":1845229},{"id":"170017","name":"Hama","country":"Syria","countryCode":"SY","latitude":35.13179,"longitude":36.75783,"admin1":"Hama","population":460602},{"id":"3014029","name":"Ham","country":"France","countryCode":"FR","latitude":49.74721,"longitude":3.07301,"admin1":"Hauts-de-France","population":5698},{"id":"2757224","name":"Den Ham","country":"The Netherlands","countryCode":"NL","latitude":52.46583,"longitude":6.49583,"admin1":"Overijssel","population":1830},{"id":"2757222","name":"Den Ham","country":"The Netherlands","countryCode":"NL","latitude":53.27417,"longitude":6.42778,"admin1":"Groningen","population":135},{"id":"7729782","name":"Ham","country":"Belgium","countryCode":"BE","latitude":51.10083,"longitude":5.1592,"admin1":"Flanders"},{"id":"1529484","name":"Kumul","country":"China","countryCode":"CN","latitude":42.83393,"longitude":93.50601,"admin1":"Xinjiang","population":246373},{"id":"2647589","name":"Ham","country":"United Kingdom","countryCode":"GB","latitude":51.36524,"longitude":-1.5259,"admin1":"England","population":210},{"id":"249306","name":"Hām","country":"Jordan","countryCode":"JO","latitude":32.51286,"longitude":35.8144,"admin1":"Irbid"},{"id":"274700","name":"Hâm","country":"Lebanon","countryCode":"LB","latitude":33.87361,"longitude":36.20194,"admin1":"Baalbek-Hermel Governorate"}]
9:26:00 AM [express] GET /api/geocoding 200 in 36ms :: [{"id":"170017","name":"Hama","country":"Syria","countryCode":"SY","latitude":35.13179,"longitude":36.75783,"admin1":"Hama","population":460602},{"id":"132144","name":"Hamadan","country":"Iran","countryCode":"IR","latitude":34.79922,"longitude":48.51456,"admin1":"Hamadan Province","population":528256},{"id":"57451","name":"Hama","country":"Somalia","countryCode":"SO","latitude":1.1,"longitude":44.01667,"admin1":"Lower Shabeelle"},{"id":"216146","name":"Hama","country":"DR Congo","countryCode":"CD","latitude":4.32476,"longitude":20.68395,"admin1":"Nord-Ubangi"},{"id":"335188","name":"Hama","country":"Ethiopia","countryCode":"ET","latitude":9.60444,"longitude":42.15917,"admin1":"Oromiya"},{"id":"1418500","name":"Malik Hāma","country":"Pakistan","countryCode":"PK","latitude":29.40224,"longitude":71.76929,"admin1":"Punjab"},{"id":"1551003","name":"Hama","country":"China","countryCode":"CN","latitude":25.8397,"longitude":105.277,"admin1":"Guizhou"},{"id":"1844639","name":"Hama","country":"South Korea","countryCode":"KR","latitude":35.46661,"longitude":126.94539,"admin1":"Jeollabuk-do"},{"id":"1854585","name":"Hama","country":"Japan","countryCode":"JP","latitude":32.65092,"longitude":128.81291,"admin1":"Nagasaki"},{"id":"1863313","name":"Hama","country":"Japan","countryCode":"JP","latitude":35.65097,"longitude":134.55011,"admin1":"Hyōgo"}]
9:26:00 AM [express] GET /api/geocoding 200 in 40ms :: [{"id":"274673","name":"Hâmât","country":"Lebanon","countryCode":"LB","latitude":34.28611,"longitude":35.69139,"admin1":"Mohafazat Liban-Nord"},{"id":"11058696","name":"Ḩamāţ","country":"Yemen","countryCode":"YE","latitude":14.9472,"longitude":43.44506,"admin1":"Al Hudaydah"},{"id":"12546200","name":"Ḩamāt","country":"Saudi Arabia","countryCode":"SA","latitude":18.8144,"longitude":42.09596,"admin1":"'Asir Region"},{"id":"10890369","name":"Hamatu","country":"China","countryCode":"CN","latitude":44.78753,"longitude":122.95333,"admin1":"Jilin"},{"id":"8354478","name":"Hamata","country":"Egypt","countryCode":"EG","latitude":24.28026,"longitude":35.37922,"admin1":"Red Sea"},{"id":"2037042","name":"Hamatang","country":"China","countryCode":"CN","latitude":43.42305,"longitude":129.49919,"admin1":"Jilin"},{"id":"75263","name":"Hamaţah","country":"Yemen","countryCode":"YE","latitude":14.61758,"longitude":45.86011,"admin1":"Shabwah"},{"id":"75264","name":"Ḩamāţah","country":"Yemen","countryCode":"YE","latitude":16.84953,"longitude":43.26737,"admin1":"Şa‘dah"},{"id":"7363865","name":"Al Ḩammah","country":"Yemen","countryCode":"YE","latitude":14.27211,"longitude":45.32132,"admin1":"Al Bayda"},{"id":"7365249","name":"Ḩamāţah","country":"Yemen","countryCode":"YE","latitude":15.42041,"longitude":43.44145,"admin1":"Al Mahwit Governorate"}]
9:26:01 AM [express] GET /api/geocoding 200 in 32ms :: [{"id":"3154084","name":"Hamar","country":"Norway","countryCode":"NO","latitude":60.7945,"longitude":11.06798,"admin1":"Innlandet","population":29479},{"id":"75267","name":"Ḩamar","country":"Yemen","countryCode":"YE","latitude":14.61667,"longitude":47.13333,"admin1":"Shabwah"},{"id":"75268","name":"Ḩamar","country":"Yemen","countryCode":"YE","latitude":14.21667,"longitude":46.65,"admin1":"Shabwah"},{"id":"2037044","name":"Hamar","country":"China","countryCode":"CN","latitude":44.93333,"longitude":125.03333,"admin1":"Jilin"},{"id":"2620837","name":"Hamar","country":"Unknown","countryCode":"FO","latitude":62.11986,"longitude":-6.90485,"admin1":"Streymoy"},{"id":"2620838","name":"Hamar","country":"Unknown","countryCode":"FO","latitude":61.6,"longitude":-6.95,"admin1":"Suðuroy"},{"id":"3154083","name":"Hammer","country":"Norway","countryCode":"NO","latitude":64.48803,"longitude":11.81052,"admin1":"Trøndelag"},{"id":"3154085","name":"Hamar","country":"Norway","countryCode":"NO","latitude":58.93333,"longitude":5.96667,"admin1":"Rogaland"},{"id":"5059522","name":"Hamar","country":"United States","countryCode":"US","latitude":47.84361,"longitude":-98.57344,"admin1":"North Dakota"},{"id":"6751138","name":"Ḩamār","country":"Iraq","countryCode":"IQ","latitude":30.45495,"longitude":47.90422,"admin1":"Basra"}]
9:26:03 AM [express] GET /api/weather 200 in 505ms :: {"city":{"id":"60.7945-11.06798","name":"Hamar","country":"Norge","latitude":60.7945,"longitude":11.06798,"timezone":"Europe/Oslo"},"current":{"temperature":-2.4,"feelsLike":-5.8,"humidity":91,"windSpeed":5.8,"windDirection":59,"weatherCode":1,"precipitation":0,"cloudCover":34,"pressure":1025.7},"daily":[{"date":"2026-01-20","temperatureMax":-0.8,"temperatureMin":-6.5,"weatherCode":3,"precipitationSum":0,"windSpeedMax":7.2,"sunrise":"2026-01-20T09:00","sunset":"2026-01-20T15:53"},{"date":"2026-01-21","temperatureMax":-1.4,"temperatureMin":-6.4,"weatherCode":3,"precipitationSum":0,"windSpeedMax":11.9,"sunrise":"2026-01-21T08:58","sunset":"2026-01-21T15:55"},{"date":"2026-01-22","temperatureMax":-1.1,"temperatureMin":-3.8,"weatherCode":3,"precipitationSum":0,"windSpeedMax":15.1,"sunrise":"2026-01-22T08:56","sunset":"2026-01-22T15:58"},{"date":"2026-01-23","temperatureMax":-3.9,"temperatureMin":-9.2,"weatherCode":71,"precipitationSum":0.1,"windSpeedMax":16.9,"sunrise":"2026-01-23T08:54","sunset":"2026-01-23T16:00"},{"date":"2026-01-24","temperatureMax":-6.9,"temperatureMin":-8.9,"weatherCode":3,"precipitationSum":0,"windSpeedMax":6.2,"sunrise":"2026-01-24T08:52","sunset":"2026-01-24T16:03"},{"date":"2026-01-25","temperatureMax":-9.4,"temperatureMin":-19,"weatherCode":3,"precipitationSum":0,"windSpeedMax":7,"sunrise":"2026-01-25T08:50","sunset":"2026-01-25T16:05"},{"date":"2026-01-26","temperatureMax":-7.9,"temperatureMin":-19.5,"weatherCode":3,"precipitationSum":0,"windSpeedMax":3.7,"sunrise":"2026-01-26T08:47","sunset":"2026-01-26T16:08"}],"hourly":[{"time":"2026-01-20T00:00","temperature":-0.8,"weatherCode":3,"precipitation":0,"windSpeed":7.2,"humidity":90},{"time":"2026-01-20T01:00","temperature":-0.8,"weatherCode":3,"precipitation":0,"windSpeed":6.5,"humidity":89},{"time":"2026-01-20T02:00","temperature":-0.9,"weatherCode":3,"precipitation":0,"windSpeed":6.1,"humidity":90},{"time":"2026-01-20T03:00","temperature":-0.9,"weatherCode":3,"precipitation":0,"windSpeed":5.8,"humidity":90},{"time":"2026-01-20T04:00","temperature":-0.9,"weatherCode":3,"precipitation":0,"windSpeed":4.7,"humidity":89},{"time":"2026-01-20T05:00","temperature":-0.9,"weatherCode":3,"precipitation":0,"windSpeed":5,"humidity":89},{"time":"2026-01-20T06:00","temperature":-0.9,"weatherCode":3,"precipitation":0,"windSpeed":4,"humidity":90},{"time":"2026-01-20T07:00","temperature":-1.1,"weatherCode":1,"precipitation":0,"windSpeed":3.6,"humidity":89},{"time":"2026-01-20T08:00","temperature":-1.3,"weatherCode":1,"precipitation":0,"windSpeed":5,"humidity":91},{"time":"2026-01-20T09:00","temperature":-2.2,"weatherCode":1,"precipitation":0,"windSpeed":5.8,"humidity":91},{"time":"2026-01-20T10:00","temperature":-2.6,"weatherCode":1,"precipitation":0,"windSpeed":5,"humidity":89},{"time":"2026-01-20T11:00","temperature":-2.2,"weatherCode":1,"precipitation":0,"windSpeed":3.6,"humidity":88},{"time":"2026-01-20T12:00","temperature":-1.7,"weatherCode":1,"precipitation":0,"windSpeed":4,"humidity":88},{"time":"2026-01-20T13:00","temperature":-1.4,"weatherCode":1,"precipitation":0,"windSpeed":2.5,"humidity":87},{"time":"2026-01-20T14:00","temperature":-1.7,"weatherCode":0,"precipitation":0,"windSpeed":1.4,"humidity":86},{"time":"2026-01-20T15:00","temperature":-2.2,"weatherCode":0,"precipitation":0,"windSpeed":2.2,"humidity":86},{"time":"2026-01-20T16:00","temperature":-3.3,"weatherCode":0,"precipitation":0,"windSpeed":2.9,"humidity":89},{"time":"2026-01-20T17:00","temperature":-4.5,"weatherCode":0,"precipitation":0,"windSpeed":6.5,"humidity":92},{"time":"2026-01-20T18:00","temperature":-5.4,"weatherCode":1,"precipitation":0,"windSpeed":6.5,"humidity":93},{"time":"2026-01-20T19:00","temperature":-6,"weatherCode":1,"precipitation":0,"windSpeed":4,"humidity":93},{"time":"2026-01-20T20:00","temperature":-6.3,"weatherCode":1,"precipitation":0,"windSpeed":2.9,"humidity":93},{"time":"2026-01-20T21:00","temperature":-6.5,"weatherCode":1,"precipitation":0,"windSpeed":3.6,"humidity":92},{"time":"2026-01-20T22:00","temperature":-6.5,"weatherCode":1,"precipitation":0,"windSpeed":4.7,"humidity":91},{"time":"2026-01-20T23:00","temperature":-6.4,"weatherCode":2,"precipitation":0,"windSpeed":3.2,"humidity":91},{"time":"2026-01-21T00:00","temperature":-6.2,"weatherCode":2,"precipitation":0,"windSpeed":2.9,"humidity":92},{"time":"2026-01-21T01:00","temperature":-6.4,"weatherCode":2,"precipitation":0,"windSpeed":4,"humidity":92},{"time":"2026-01-21T02:00","temperature":-6.4,"weatherCode":2,"precipitation":0,"windSpeed":4.7,"humidity":91},{"time":"2026-01-21T03:00","temperature":-6.4,"weatherCode":2,"precipitation":0,"windSpeed":4,"humidity":90},{"time":"2026-01-21T04:00","temperature":-6.4,"weatherCode":2,"precipitation":0,"windSpeed":3.6,"humidity":90},{"time":"2026-01-21T05:00","temperature":-5.8,"weatherCode":2,"precipitation":0,"windSpeed":3.6,"humidity":90},{"time":"2026-01-21T06:00","temperature":-5.3,"weatherCode":2,"precipitation":0,"windSpeed":3.6,"humidity":89},{"time":"2026-01-21T07:00","temperature":-4.7,"weatherCode":3,"precipitation":0,"windSpeed":3.2,"humidity":88},{"time":"2026-01-21T08:00","temperature":-4.3,"weatherCode":3,"precipitation":0,"windSpeed":4.3,"humidity":85},{"time":"2026-01-21T09:00","temperature":-4.2,"weatherCode":3,"precipitation":0,"windSpeed":4.3,"humidity":86},{"time":"2026-01-21T10:00","temperature":-4,"weatherCode":3,"precipitation":0,"windSpeed":4.3,"humidity":87},{"time":"2026-01-21T11:00","temperature":-3.6,"weatherCode":3,"precipitation":0,"windSpeed":3.6,"humidity":86},{"time":"2026-01-21T12:00","temperature":-3.1,"weatherCode":3,"precipitation":0,"windSpeed":3.6,"humidity":85},{"time":"2026-01-21T13:00","temperature":-2.5,"weatherCode":3,"precipitation":0,"windSpeed":2.9,"humidity":86},{"time":"2026-01-21T14:00","temperature":-2,"weatherCode":3,"precipitation":0,"windSpeed":1.4,"humidity":85},{"time":"2026-01-21T15:00","temperature":-1.9,"weatherCode":3,"precipitation":0,"windSpeed":2.5,"humidity":87},{"time":"2026-01-21T16:00","temperature":-2.3,"weatherCode":3,"precipitation":0,"windSpeed":2.2,"humidity":87},{"time":"2026-01-21T17:00","temperature":-2.3,"weatherCode":3,"precipitation":0,"windSpeed":1.8,"humidity":87},{"time":"2026-01-21T18:00","temperature":-2.5,"weatherCode":3,"precipitation":0,"windSpeed":1.4,"humidity":87},{"time":"2026-01-21T19:00","temperature":-2.4,"weatherCode":3,"precipitation":0,"windSpeed":7.9,"humidity":84},{"time":"2026-01-21T20:00","temperature":-2,"weatherCode":3,"precipitation":0,"windSpeed":11.9,"humidity":82},{"time":"2026-01-21T21:00","temperature":-1.8,"weatherCode":3,"precipitation":0,"windSpeed":10.4,"humidity":84},{"time":"2026-01-21T22:00","temperature":-1.6,"weatherCode":3,"precipitation":0,"windSpeed":8.6,"humidity":84},{"time":"2026-01-21T23:00","temperature":-1.4,"weatherCode":3,"precipitation":0,"windSpeed":11.2,"humidity":84}]}